Hotel Name,Rating,Rating Description,Reviews,Location,Nearest Landmark,Distance to Landmark,Price,Tax,Final Price,Room Type,Latitude,Longitude
The Orchid Hotel Mumbai Vile Parle,4.0,Very Good,5593,Near Mumbai Airport ,T1 - Chhatrapati Shivaji International Airport,930 m ,6499.0,780.0,7279.0,Standard,19.0902177,72.86281199999999
Trident Bandra Kurla,4.6,Excellent,4987,Bandra Kurla Complex ,T1 - Chhatrapati Shivaji International Airport,7.8 km ,8750.0,0.0,8750.0,Deluxe,19.0666028,72.86743179999999
ITC Grand Central - A Luxury Collection Hotel,4.5,Excellent,2445,South Mumbai ,Cooper hospital,620 m ,14000.0,0.0,14000.0,Deluxe,18.9983626,72.83877679999999
IRA By Orchid Mumbai ( VITS Mumbai),3.9,Very Good,4707,Near Mumbai Airport ,T2 - Chhatrapati Shivaji International Airport,2.3 km ,5099.0,612.0,5711.0,Basic,19.1117694,72.8711694
Trident Nariman Point,4.6,Excellent,5563,Marine Drive ,Queen's Necklace - Marine Drive,470 m ,11250.0,0.0,11250.0,Deluxe,18.9277306,72.8211985
The Lalit Mumbai,4.1,Very Good,6468,Near Mumbai Airport ,T2 - Chhatrapati Shivaji International Airport,1.3 km ,11160.0,0.0,11160.0,Standard,19.1053238,72.8758792
"Ginger Mumbai, Andheri East",3.7,Very Good,5340,Andheri East ,T1 - Chhatrapati Shivaji International Airport,3.3 km ,3679.0,0.0,3679.0,Basic,19.1159308,72.8503952
"Taj Santacruz, Mumbai",4.6,Excellent,4563,Near Mumbai Airport ,T1 - Chhatrapati Shivaji International Airport,560 m ,9000.0,0.0,9000.0,Deluxe,19.0927936,72.8541295
Hotel Surya Prakash,3.9,Very Good,121,Chembur,,,3939.0,968.0,4907.0,Basic,19.060513,72.8991824
Hilton Mumbai International Airport,4.2,Very Good,1686,Near Mumbai Airport ,T2 - Chhatrapati Shivaji International Airport,1.6 km ,9100.0,0.0,9100.0,Standard,19.1044496,72.8707395
Holiday Inn Mumbai International Airport,4.3,Excellent,2744,Near Mumbai Airport ,T2 - Chhatrapati Shivaji International Airport,3.0 km ,6999.0,0.0,6999.0,Standard,19.102916,72.8871936
goSTOPS Mumbai - Rooms & Dorms,3.9,Very Good,1376,South Mumbai,,,816.0,211.0,1027.0,Basic,18.9747163,72.8139964
The Regale by Tunga,4.1,Very Good,4946,Andheri East ,T2 - Chhatrapati Shivaji International Airport,3.6 km ,4427.0,932.0,5359.0,Standard,19.1211262,72.8702649
"Taj Lands End, Mumbai",4.5,Excellent,4222,Bandra West ,Band Stand,230 m ,11000.0,0.0,11000.0,Deluxe,19.0439316,72.8192723
"Ramada Plaza By Wyndham Palm Grove, Juhu, Mumbai",4.1,Very Good,7206,Juhu ,T1 - Chhatrapati Shivaji International Airport,5.8 km ,7095.0,0.0,7095.0,Standard,19.0986109,72.8266968
Sahara Star,4.2,Very Good,7303,Near Mumbai Airport ,T1 - Chhatrapati Shivaji International Airport,760 m ,10400.0,0.0,10400.0,Standard,19.0902177,72.86281199999999
Qubestay Airport Capsule Hostel | Rooms & Dorms,3.8,Very Good,632,Andheri East ,T2 - Chhatrapati Shivaji International Airport,3.6 km ,1160.0,341.0,1501.0,Basic,19.1066425,72.8900345
Courtyard by Marriott Mumbai International Airport,4.3,Excellent,1829,Near Mumbai Airport ,T2 - Chhatrapati Shivaji International Airport,3.3 km ,7500.0,0.0,7500.0,Standard,19.1140703,72.8641579
The Westin Mumbai Garden City,4.4,Excellent,1431,Goregaon ,T1 - Chhatrapati Shivaji International Airport,9.5 km ,9000.0,0.0,9000.0,Standard,19.1728698,72.860506
JW Marriott Mumbai Juhu,4.4,Excellent,1731,Juhu ,T1 - Chhatrapati Shivaji International Airport,5.5 km ,12500.0,0.0,12500.0,Standard,19.1018504,72.8262233
ITC Maratha - A Luxury Collection Hotel,4.4,Excellent,4680,Near Mumbai Airport ,T2 - Chhatrapati Shivaji International Airport,1.4 km ,10030.0,0.0,10030.0,Standard,19.1038836,72.8701653
City Stay,4.6,Excellent,214,Andheri East ,T1 - Chhatrapati Shivaji International Airport,3.7 km ,1229.0,370.0,1599.0,Deluxe,19.1158931,72.85682589999999
JW Marriott Mumbai Sahar,4.5,Excellent,2139,Near Mumbai Airport ,T2 - Chhatrapati Shivaji International Airport,1.2 km ,9500.0,0.0,9500.0,Deluxe,19.1025072,72.8782482
Radisson Mumbai Andheri MIDC,4.3,Excellent,3609,Andheri East ,T2 - Chhatrapati Shivaji International Airport,4.1 km ,7000.0,0.0,7000.0,Standard,19.1175169,72.8649065
Sofitel Mumbai BKC- Luxury Brand by Accor,4.3,Excellent,2276,Bandra Kurla Complex ,T1 - Chhatrapati Shivaji International Airport,7.6 km ,8550.0,0.0,8550.0,Standard,19.0674785,72.8690412
The Leela Mumbai,4.5,Excellent,2861,Near Mumbai Airport ,T2 - Chhatrapati Shivaji International Airport,1.7 km ,10500.0,0.0,10500.0,Deluxe,19.1090922,72.87381859999999
Novotel Mumbai International Airport,4.4,Excellent,102,Near Mumbai Airport ,T2 - Chhatrapati Shivaji International Airport,1.8 km ,8299.0,0.0,8299.0,Standard,19.1101526,72.87537809999999
Radisson Blu Mumbai International Airport,4.4,Excellent,2166,Near Mumbai Airport ,T2 - Chhatrapati Shivaji International Airport,2.1 km ,7499.0,0.0,7499.0,Standard,19.1102222,72.8786221
Sun-N-Sand,4.2,Very Good,2353,Juhu ,T1 - Chhatrapati Shivaji International Airport,5.8 km ,8835.0,0.0,8835.0,Standard,19.1096209,72.82380669999999
The St. Regis Mumbai,4.5,Excellent,1328,South Mumbai ,Tata memorial cancer hospital,640 m ,12500.0,0.0,12500.0,Deluxe,18.9944817,72.8240099
Niranta Airport Transit Hotel & Lounge Terminal 2 Arrivals/Landside,4.0,Very Good,1443,In Mumbai Airport ,,,9303.0,0.0,9303.0,Standard,19.0985928,72.87427679999999
"Zostel Mumbai
Like a 3",4.0,Very Good,738,Andheri East ,T2 - Chhatrapati Shivaji International Airport,3.6 km ,1342.0,285.0,1627.0,Standard,19.1194616,72.8837906
"President, Mumbai - IHCL SeleQtions",4.4,Excellent,2510,South Mumbai ,Queen's Necklace - Marine Drive,2.4 km ,10400.0,0.0,10400.0,Standard,18.9145683,72.82080619999999
Novotel Mumbai Juhu Beach,3.6,Very Good,2306,Juhu ,T1 - Chhatrapati Shivaji International Airport,5.6 km ,8500.0,0.0,8500.0,Basic,19.1086322,72.8243853
Ibis Mumbai Airport - An Accor Brand,3.6,Very Good,1990,Near Mumbai Airport ,T1 - Chhatrapati Shivaji International Airport,680 m ,6499.0,0.0,6499.0,Basic,19.0966656,72.8534991
"Ginger Mumbai, Andheri (MIDC)",3.4,Good,2721,Jogeshwari East ,T2 - Chhatrapati Shivaji International Airport,5.3 km ,2624.0,0.0,2624.0,Basic,19.1284906,72.8688099
Lakeside Chalet Marriott Executive Apartments,4.1,Very Good,362,Powai ,T2 - Chhatrapati Shivaji International Airport,6.5 km ,9000.0,0.0,9000.0,Standard,19.1328847,72.8994373
"Lemon Tree Hotel, Kalina, Mumbai",3.3,Good,324,Bandra Kurla Complex ,T1 - Chhatrapati Shivaji International Airport,6.7 km ,4975.0,0.0,4975.0,Basic,19.0746607,72.86966629999999
Ramee Guestline Hotel Juhu,3.6,Very Good,3162,Juhu ,T1 - Chhatrapati Shivaji International Airport,5.7 km ,5275.0,0.0,5275.0,Basic,19.1092234,72.8255357
Ramee Techome,4.0,Very Good,1173,Khar West ,T1 - Chhatrapati Shivaji International Airport,5.2 km ,6231.0,0.0,6231.0,Standard,19.066971,72.8393147
Shabana,3.5,Very Good,216,Colaba ,Gateway Of India Mumbai,1.1 km ,1304.0,355.0,1659.0,Basic,18.9240525,72.832088
Hotel Bawa International,4.0,Very Good,1817,Near Mumbai Airport ,T1 - Chhatrapati Shivaji International Airport,810 m ,5000.0,0.0,5000.0,Standard,19.096475,72.8538355
"Ginger Mumbai, Goregaon",3.8,Very Good,478,Goregaon ,T1 - Chhatrapati Shivaji International Airport,8.5 km ,3224.0,0.0,3224.0,Basic,19.1598797,72.8509969
Grand Hyatt Mumbai,4.3,Excellent,1855,Near Mumbai Airport ,T1 - Chhatrapati Shivaji International Airport,3.7 km ,10000.0,0.0,10000.0,Standard,19.0768067,72.8511248
Hotel Marine Plaza,4.2,Very Good,1292,Churchgate ,Queen's Necklace - Marine Drive,270 m ,9449.0,0.0,9449.0,Standard,18.9313358,72.8230561
"Lemon Tree Premier, Mumbai International Airport, Mumbai",4.2,Very Good,5001,Near Mumbai Airport ,T2 - Chhatrapati Shivaji International Airport,2.3 km ,3566.0,0.0,3566.0,Standard,19.107635,72.88212299999999
Hotel Airport International,3.7,Very Good,3139,Near Mumbai Airport ,T1 - Chhatrapati Shivaji International Airport,780 m ,3255.0,770.0,4025.0,Basic,19.0963968,72.854192
Dragonfly Hotel - The Art Hotel,3.5,Very Good,906,Near Mumbai Airport ,T2 - Chhatrapati Shivaji International Airport,3.1 km ,3035.0,935.0,3970.0,Basic,19.1108308,72.8629938
Four Seasons Hotel Mumbai,4.4,Excellent,1863,South Mumbai,,,49000.0,0.0,49000.0,Standard,18.9944097,72.820347
Gateway Inn | Rooms in an Apartment,3.2,Good,356,Near Mumbai Airport ,T2 - Chhatrapati Shivaji International Airport,2.3 km ,1839.0,495.0,2334.0,Basic,18.9581934,72.8320729
"The Oberoi, Mumbai",4.7,Excellent,876,Marine Drive ,Queen's Necklace - Marine Drive,420 m ,16750.0,0.0,16750.0,Deluxe,18.9268102,72.8201184
Hotel Jyoti Dwelling,4.2,Very Good,1539,Near Mumbai Airport ,T2 - Chhatrapati Shivaji International Airport,3.2 km ,2232.0,456.0,2688.0,Standard,19.1107368,72.8627185
Indie Stays,3.9,Very Good,1406,Bandra Kurla Complex ,T1 - Chhatrapati Shivaji International Airport,5.8 km ,6975.0,0.0,6975.0,Basic,19.0713084,72.8643834
Meluha - The Fern,4.4,Excellent,2189,Powai ,T2 - Chhatrapati Shivaji International Airport,7.2 km ,7109.0,0.0,7109.0,Standard,19.1178735,72.9108048
Afra dormitory,4.8,Excellent,4,Andheri East ,T2 - Chhatrapati Shivaji International Airport,3.3 km ,848.0,228.0,1076.0,Deluxe,19.1171116,72.88004699999999
Hotel Airlink,3.8,Very Good,387,Near Mumbai Airport ,T1 - Chhatrapati Shivaji International Airport,950 m ,3204.0,798.0,4002.0,Basic,19.0902177,72.86281199999999
The Fern Goregaon,4.2,Very Good,1842,Goregaon ,T1 - Chhatrapati Shivaji International Airport,8.9 km ,7988.0,0.0,7988.0,Standard,19.1621993,72.8570161
Mirage Hotel,4.1,Very Good,1820,Near Mumbai Airport ,T2 - Chhatrapati Shivaji International Airport,1.7 km ,6126.0,0.0,6126.0,Standard,19.0902177,72.86281199999999
"RELOhomes | 1 BHK Apartment
Like a 4",4.6,Excellent,45,Powai ,T2 - Chhatrapati Shivaji International Airport,7.7 km ,5721.0,0.0,5721.0,Deluxe,19.1232676,72.91000489999999
Click Hotel Caliph,3.3,Good,834,Powai ,T2 - Chhatrapati Shivaji International Airport,5.4 km ,4500.0,0.0,4500.0,Basic,19.1184781,72.8992921
HOTEL LEAFIO MARIGOLD,3.7,Very Good,1387,Near Mumbai Airport ,T2 - Chhatrapati Shivaji International Airport,2.2 km ,3162.0,748.0,3910.0,Basic,19.110388,72.87927169999999
"Keys Select by Lemon Tree Hotels, Nestor, Mumbai",3.5,Very Good,1528,Andheri East ,T2 - Chhatrapati Shivaji International Airport,3.0 km ,3623.0,0.0,3623.0,Basic,19.1156965,72.8835072
Hotel Sea Princess,4.1,Very Good,1762,Juhu ,T1 - Chhatrapati Shivaji International Airport,5.6 km ,7952.0,0.0,7952.0,Standard,19.0934102,72.8281295
HOTEL WEGO,4.1,Very Good,1335,Near Mumbai Airport ,T2 - Chhatrapati Shivaji International Airport,2.2 km ,3495.0,0.0,3495.0,Standard,19.0902177,72.86281199999999
Rodas - An Ecotel Hotel,4.4,Excellent,795,Powai ,T2 - Chhatrapati Shivaji International Airport,7.0 km ,7998.0,0.0,7998.0,Standard,19.1185645,72.911531
The Westin Mumbai Powai Lake,4.3,Excellent,1282,Powai ,T2 - Chhatrapati Shivaji International Airport,6.7 km ,9000.0,0.0,9000.0,Standard,19.1346952,72.9013915
Mayura Aureole Co-Living,4.2,Very Good,143,Goregaon ,T1 - Chhatrapati Shivaji International Airport,8.4 km ,1496.0,418.0,1914.0,Standard,19.1600456,72.8571234
Sea Green Hotel,3.8,Very Good,1203,Churchgate ,Queen's Necklace - Marine Drive,450 m ,4692.0,0.0,4692.0,Basic,18.9328595,72.82367169999999
ibis Mumbai Vikhroli - An Accor Brand,3.9,Very Good,327,Vikhroli West ,T2 - Chhatrapati Shivaji International Airport,9.5 km ,6299.0,0.0,6299.0,Basic,19.1203687,72.9255727
Aboo's Concord Galaxy,3.3,Good,798,Near Mumbai Airport ,T2 - Chhatrapati Shivaji International Airport,1.9 km ,3228.0,831.0,4059.0,Basic,19.0902177,72.86281199999999
The Paradise by Tunga,4.0,Very Good,1202,Andheri East ,T2 - Chhatrapati Shivaji International Airport,3.4 km ,5864.0,0.0,5864.0,Standard,19.1209107,72.8703457
Address Dormitory,4.0,Very Good,240,Andheri East ,T2 - Chhatrapati Shivaji International Airport,3.2 km ,404.0,113.0,517.0,Standard,19.1176709,72.8718927
Arnna Hotel - Goregaon,3.8,Very Good,135,Goregaon ,T1 - Chhatrapati Shivaji International Airport,7.9 km ,2919.0,830.0,3749.0,Basic,19.1545692,72.8519471
Ramee Guestline Hotel - Dadar,4.1,Very Good,774,South Mumbai,,,6814.0,0.0,6814.0,Standard,19.0171239,72.8446316
Hotel Metro Palace,3.6,Very Good,1167,Bandra West ,Band Stand,2.5 km ,4064.0,495.0,4559.0,Basic,19.0562415,72.8343024
Hotel Manama,3.5,Very Good,1566,South Mumbai ,Gateway Of India Mumbai,2.3 km ,3158.0,747.0,3905.0,Basic,18.9394498,72.8384508
Aashiyana Dormitory,3.1,Good,277,South Mumbai ,Gateway Of India Mumbai,2.4 km ,630.0,176.0,806.0,Basic,18.9372332,72.8338026
T24 Residency,4.0,Very Good,2465,Near Mumbai Airport ,T2 - Chhatrapati Shivaji International Airport,2.0 km ,4099.0,0.0,4099.0,Standard,19.0902177,72.86281199999999
"The Taj Mahal Palace, Mumbai",4.7,Excellent,802,Colaba ,Gateway Of India Mumbai,280 m ,27000.0,0.0,27000.0,Deluxe,18.9216631,72.8332028
The Roa Hotel,3.7,Very Good,1300,Ghatkopar West ,T2 - Chhatrapati Shivaji International Airport,5.5 km ,2976.0,608.0,3584.0,Basic,19.0904218,72.9088998
Hotel Leafio,3.5,Very Good,1919,Near Mumbai Airport ,T2 - Chhatrapati Shivaji International Airport,3.1 km ,2199.0,264.0,2463.0,Basic,19.0902177,72.86281199999999
The Byke Delotel,3.8,Very Good,419,Borivali West,,,3183.0,903.0,4086.0,Basic,19.2306866,72.8555556
The Empresa Hotel,3.8,Very Good,701,Andheri West ,T1 - Chhatrapati Shivaji International Airport,7.6 km ,8099.0,0.0,8099.0,Basic,19.1365535,72.82988259999999
HOTEL KOHINOOR PARK,3.8,Very Good,592,South Mumbai ,Siddhivinayak Temple,480 m ,3596.0,0.0,3596.0,Basic,19.01674,72.829179
The Altruist Business Hotel (Andheri),3.6,Very Good,1257,Jogeshwari East ,T1 - Chhatrapati Shivaji International Airport,4.5 km ,2763.0,711.0,3474.0,Basic,19.1215978,72.84784499999999
Hotel Parle International,3.7,Very Good,3158,Near Mumbai Airport ,T1 - Chhatrapati Shivaji International Airport,1.9 km ,4836.0,0.0,4836.0,Basic,19.0902177,72.86281199999999
Ocean Dormitory,3.6,Very Good,67,Asalpha ,T2 - Chhatrapati Shivaji International Airport,3.7 km ,925.0,249.0,1174.0,Basic,19.1006949,72.8916752
Hotel Beacon T2,3.2,Good,955,Near Mumbai Airport ,T2 - Chhatrapati Shivaji International Airport,3.9 km ,3600.0,851.0,4451.0,Basic,19.0902177,72.86281199999999
Hotel Columbus,3.6,Very Good,1401,Near Mumbai Airport ,T1 - Chhatrapati Shivaji International Airport,1.5 km ,2608.0,567.0,3175.0,Basic,19.0902177,72.86281199999999
Sea Green South Hotel,3.9,Very Good,985,Churchgate ,Queen's Necklace - Marine Drive,440 m ,5583.0,0.0,5583.0,Basic,18.9328595,72.82367169999999
Hotel Suba International,4.3,Excellent,683,Near Mumbai Airport ,T2 - Chhatrapati Shivaji International Airport,2.0 km ,6700.0,0.0,6700.0,Standard,19.0902177,72.86281199999999
Classic Dormitory,3.8,Very Good,123,Andheri East ,T2 - Chhatrapati Shivaji International Airport,3.5 km ,572.0,145.0,717.0,Basic,19.1173402,72.8805892
The Resort Mumbai,4.2,Very Good,3937,Madh,,,11811.0,0.0,11811.0,Standard,19.173487,72.7958712
The Mirador,3.7,Very Good,384,Near Mumbai Airport ,T1 - Chhatrapati Shivaji International Airport,3.2 km ,6750.0,810.0,7560.0,Basic,19.0902177,72.86281199999999
The Sahil Hotel,4.2,Very Good,1587,South Mumbai ,Mumbai Central Bus Terminus,610 m ,4650.0,0.0,4650.0,Standard,18.9686876,72.82368319999999
Avion Hotel,3.3,Good,1154,Near Mumbai Airport ,T1 - Chhatrapati Shivaji International Airport,1.6 km ,4205.0,0.0,4205.0,Basic,19.0902177,72.86281199999999
Blossom Dormitory ( For Male and Female),3.6,Very Good,214,Sakinaka ,T2 - Chhatrapati Shivaji International Airport,3.4 km ,678.0,189.0,867.0,Basic,19.1013189,72.89045469999999
Comfort Inn Heritage,3.9,Very Good,963,South Mumbai,,,4743.0,0.0,4743.0,Basic,18.9759848,72.8342425
Hotel Planet Residency,3.8,Very Good,1064,Near Mumbai Airport ,T1 - Chhatrapati Shivaji International Airport,2.2 km ,3726.0,0.0,3726.0,Basic,19.1086875,72.8522302
Hotel Kohinoor Elite,4.1,Very Good,2183,Near Mumbai Airport ,T2 - Chhatrapati Shivaji International Airport,6.1 km ,7250.0,0.0,7250.0,Standard,19.0806968,72.885526
Residency Hotel Andheri,4.0,Very Good,1866,Andheri East ,T1 - Chhatrapati Shivaji International Airport,3.2 km ,4883.0,0.0,4883.0,Standard,19.1176705,72.8561988
